{
  "FirstNames": [
    "Antonio",
    "Brad",
    "Tom",
    "Johnny",
    "Leonardo",
    "Angelina",
    "Jennifer",
    "Julia",
    "Meryl",
    "Cate",
    "George",
    "Robert",
    "Denzel",
    "Morgan",
    "Samuel",
    "Scarlett",
    "Natalie",
    "Charlize",
    "Keira",
    "Emma",
    "Daniel",
    "Jude",
    "Matt",
    "Russell",
    "Hugh",
    "Nicole",
    "Reese",
    "Mila",
    "Emily",
    "Kate",
    "Idris",
    "Chris",
    "Liam",
    "Ryan",
    "Chris",
    "Alicia",
    "Jessica",
    "Zoe",
    "Natalie",
    "Charlize",
    "Eva",
    "Penelope",
    "Salma",
    "Mila",
    "Scarlett",
    "Javier",
    "Joaquin",
    "Heath",
    "Russell",
    "Bradley"
  ],
  "LastNames": [
    "Banderas",
    "Pitt",
    "Hanks",
    "Depp",
    "DiCaprio",
    "Jolie",
    "Aniston",
    "Roberts",
    "Streep",
    "Blanchett",
    "Clooney",
    "Downey",
    "Washington",
    "Freeman",
    "Jackson",
    "Johansson",
    "Portman",
    "Theron",
    "Knightley",
    "Watson",
    "Craig",
    "Law",
    "Damon",
    "Crowe",
    "Grant",
    "Kidman",
    "Witherspoon",
    "Kunis",
    "Stone",
    "Beckinsale",
    "Elba",
    "Evans",
    "Neeson",
    "Reynolds",
    "Hemsworth",
    "Vikander",
    "Chastain",
    "Saldana",
    "Portman",
    "Theron",
    "Longoria",
    "Cruz",
    "Hayek",
    "Kunis",
    "Johansson",
    "Bardem",
    "Phoenix",
    "Ledger",
    "Crowe",
    "Cooper"
  ],
  "Locations": [
    {
      "Country": "Hrvatska",
      "Zip": "10000",
      "City": "Zagreb",
      "Street": "Trg Bana Jelačića",
      "Latitude": 45.8131,
      "Longitude": 15.9772,
      "PlaceId": "HRZG10000A"
    },
    {
      "Country": "Hrvatska",
      "Zip": "21000",
      "City": "Split",
      "Street": "Riva",
      "Latitude": 43.5085,
      "Longitude": 16.4402,
      "PlaceId": "HRST21000B"
    },
    {
      "Country": "Hrvatska",
      "Zip": "20000",
      "City": "Dubrovnik",
      "Street": "Stradun",
      "Latitude": 42.6410,
      "Longitude": 18.1086,
      "PlaceId": "HRDB20000C"
    },
    {
      "Country": "Njemačka",
      "Zip": "10117",
      "City": "Berlin",
      "Street": "Unter den Linden",
      "Latitude": 52.5168,
      "Longitude": 13.3934,
      "PlaceId": "DEB10117A"
    },
    {
      "Country": "Njemačka",
      "Zip": "80331",
      "City": "München",
      "Street": "Marienplatz",
      "Latitude": 48.1373,
      "Longitude": 11.5758,
      "PlaceId": "DEM80331B"
    },
    {
      "Country": "Njemačka",
      "Zip": "20354",
      "City": "Hamburg",
      "Street": "Reeperbahn",
      "Latitude": 53.5484,
      "Longitude": 9.9678,
      "PlaceId": "DEH20354C"
    },
    {
      "Country": "Francuska",
      "Zip": "75008",
      "City": "Pariz",
      "Street": "Champs-Élysées",
      "Latitude": 48.8698,
      "Longitude": 2.3072,
      "PlaceId": "FRPA75008A"
    },
    {
      "Country": "Francuska",
      "Zip": "69002",
      "City": "Lyon",
      "Street": "Rue de la République",
      "Latitude": 45.7634,
      "Longitude": 4.8344,
      "PlaceId": "FRLY69002B"
    },
    {
      "Country": "Italija",
      "Zip": "00187",
      "City": "Rim",
      "Street": "Via dei Fori Imperiali",
      "Latitude": 41.8943,
      "Longitude": 12.4842,
      "PlaceId": "ITRO00187A"
    },
    {
      "Country": "Italija",
      "Zip": "20121",
      "City": "Milano",
      "Street": "Corso Vittorio Emanuele II",
      "Latitude": 45.4646,
      "Longitude": 9.1914,
      "PlaceId": "ITMI20121B"
    },
    {
      "Country": "Italija",
      "Zip": "30124",
      "City": "Venecija",
      "Street": "Riva degli Schiavoni",
      "Latitude": 45.4347,
      "Longitude": 12.3411,
      "PlaceId": "ITVE30124C"
    },
    {
      "Country": "Španjolska",
      "Zip": "28013",
      "City": "Madrid",
      "Street": "Gran Vía",
      "Latitude": 40.4201,
      "Longitude": -3.7037,
      "PlaceId": "ESMA28013A"
    },
    {
      "Country": "Španjolska",
      "Zip": "08002",
      "City": "Barcelona",
      "Street": "La Rambla",
      "Latitude": 41.3828,
      "Longitude": 2.1762,
      "PlaceId": "ESBA08002B"
    },
    {
      "Country": "Ujedinjeno Kraljevstvo",
      "Zip": "SW1A 0AA",
      "City": "London",
      "Street": "Whitehall",
      "Latitude": 51.5035,
      "Longitude": -0.1268,
      "PlaceId": "UKLO1A0AA"
    },
    {
      "Country": "Ujedinjeno Kraljevstvo",
      "Zip": "M1 1RG",
      "City": "Manchester",
      "Street": "Deansgate",
      "Latitude": 53.4815,
      "Longitude": -2.2472,
      "PlaceId": "UKMA11RG"
    },
    {
      "Country": "Austrija",
      "Zip": "1010",
      "City": "Beč",
      "Street": "Ringstraße",
      "Latitude": 48.2046,
      "Longitude": 16.3721,
      "PlaceId": "ATVI1010A"
    },
    {
      "Country": "Austrija",
      "Zip": "5020",
      "City": "Salzburg",
      "Street": "Getreidegasse",
      "Latitude": 47.8002,
      "Longitude": 13.0461,
      "PlaceId": "ATSA5020B"
    },
    {
      "Country": "Grčka",
      "Zip": "10555",
      "City": "Atena",
      "Street": "Ermou Street",
      "Latitude": 37.9774,
      "Longitude": 23.7275,
      "PlaceId": "GRA10555A"
    },
    {
      "Country": "Grčka",
      "Zip": "54622",
      "City": "Solun",
      "Street": "Aristotelous Square",
      "Latitude": 40.6322,
      "Longitude": 22.9400,
      "PlaceId": "GRT54622B"
    },
    {
      "Country": "Nizozemska",
      "Zip": "1012",
      "City": "Amsterdam",
      "Street": "Damrak",
      "Latitude": 52.3758,
      "Longitude": 4.8943,
      "PlaceId": "NLD1012A"
    },
    {
      "Country": "Nizozemska",
      "Zip": "3011",
      "City": "Rotterdam",
      "Street": "Coolsingel",
      "Latitude": 51.9221,
      "Longitude": 4.4789,
      "PlaceId": "NLR3011B"
    },
    {
      "Country": "Češka",
      "Zip": "11000",
      "City": "Prag",
      "Street": "Staroměstské náměstí",
      "Latitude": 50.0874,
      "Longitude": 14.4212,
      "PlaceId": "CZP11000A"
    },
    {
      "Country": "Češka",
      "Zip": "60200",
      "City": "Brno",
      "Street": "Náměstí Svobody",
      "Latitude": 49.1952,
      "Longitude": 16.6084,
      "PlaceId": "CZB60200B"
    },
    {
      "Country": "Mađarska",
      "Zip": "1051",
      "City": "Budimpešta",
      "Street": "Andrássy út",
      "Latitude": 47.5020,
      "Longitude": 19.0570,
      "PlaceId": "HUB1051A"
    },
    {
      "Country": "Mađarska",
      "Zip": "6720",
      "City": "Szeged",
      "Street": "Széchenyi tér",
      "Latitude": 46.2530,
      "Longitude": 20.1481,
      "PlaceId": "HUS6720B"
    },
    {
      "Country": "Poljska",
      "Zip": "00-001",
      "City": "Varšava",
      "Street": "Krakowskie Przedmieście",
      "Latitude": 52.2407,
      "Longitude": 21.0152,
      "PlaceId": "PLW00001A"
    },
    {
      "Country": "Poljska",
      "Zip": "31-042",
      "City": "Krakow",
      "Street": "Rynek Główny",
      "Latitude": 50.0617,
      "Longitude": 19.9372,
      "PlaceId": "PLK31042B"
    },
    {
      "Country": "Belgija",
      "Zip": "1000",
      "City": "Bruxelles",
      "Street": "Grand Place",
      "Latitude": 50.8466,
      "Longitude": 4.3528,
      "PlaceId": "BEB1000A"
    },
    {
      "Country": "Belgija",
      "Zip": "9000",
      "City": "Gent",
      "Street": "Korenmarkt",
      "Latitude": 51.0530,
      "Longitude": 3.7214,
      "PlaceId": "BEG9000B"
    },
    {
      "Country": "Portugal",
      "Zip": "1100-503",
      "City": "Lisabon",
      "Street": "Rua Augusta",
      "Latitude": 38.7107,
      "Longitude": -9.1387,
      "PlaceId": "PTL1100503A"
    },
    {
      "Country": "Portugal",
      "Zip": "4000-078",
      "City": "Porto",
      "Street": "Rua de Santa Catarina",
      "Latitude": 41.1496,
      "Longitude": -8.6080,
      "PlaceId": "PTP4000078B"
    },
    {
      "Country": "Švedska",
      "Zip": "111 29",
      "City": "Stockholm",
      "Street": "Drottninggatan",
      "Latitude": 59.3303,
      "Longitude": 18.0640,
      "PlaceId": "SES11129A"
    },
    {
      "Country": "Švedska",
      "Zip": "411 06",
      "City": "Göteborg",
      "Street": "Avenyn",
      "Latitude": 57.7011,
      "Longitude": 11.9723,
      "PlaceId": "SEG41106B"
    },
    {
      "Country": "Irska",
      "Zip": "D01",
      "City": "Dublin",
      "Street": "Grafton Street",
      "Latitude": 53.3421,
      "Longitude": -6.2604,
      "PlaceId": "IEDD01A"
    },
    {
      "Country": "Irska",
      "Zip": "V94",
      "City": "Galway",
      "Street": "Shop Street",
      "Latitude": 53.2718,
      "Longitude": -9.0526,
      "PlaceId": "IEG94B"
    },
    {
      "Country": "Švicarska",
      "Zip": "8001",
      "City": "Zürich",
      "Street": "Bahnhofstrasse",
      "Latitude": 47.3697,
      "Longitude": 8.5398,
      "PlaceId": "CHZ8001A"
    },
    {
      "Country": "Švicarska",
      "Zip": "1201",
      "City": "Ženeva",
      "Street": "Rue du Rhône",
      "Latitude": 46.2057,
      "Longitude": 6.1450,
      "PlaceId": "CHG1201B"
    },
    {
      "Country": "Danska",
      "Zip": "1160",
      "City": "Kopenhagen",
      "Street": "Strøget",
      "Latitude": 55.6763,
      "Longitude": 12.5695,
      "PlaceId": "DKC1160A"
    },
    {
      "Country": "Danska",
      "Zip": "8000",
      "City": "Aarhus",
      "Street": "Strøget",
      "Latitude": 56.1554,
      "Longitude": 10.2087,
      "PlaceId": "DKA8000B"
    },
    {
      "Country": "Finska",
      "Zip": "00100",
      "City": "Helsinki",
      "Street": "Mannerheimintie",
      "Latitude": 60.1698,
      "Longitude": 24.9384,
      "PlaceId": "FIH00100A"
    },
    {
      "Country": "Finska",
      "Zip": "33100",
      "City": "Tampere",
      "Street": "Hämeenkatu",
      "Latitude": 61.4981,
      "Longitude": 23.7600,
      "PlaceId": "FIT33100B"
    },
    {
      "Country": "Norveška",
      "Zip": "0159",
      "City": "Oslo",
      "Street": "Karl Johans gate",
      "Latitude": 59.9138,
      "Longitude": 10.7410,
      "PlaceId": "NOO0159A"
    },
    {
      "Country": "Norveška",
      "Zip": "5003",
      "City": "Bergen",
      "Street": "Bryggen",
      "Latitude": 60.3965,
      "Longitude": 5.3283,
      "PlaceId": "NOB5003B"
    }
  ]
}